[
    { "name": "Adana", "lat": 37.0, "lon": 35.3213 },
    { "name": "Adıyaman", "lat": 37.7648, "lon": 38.2786 },
    { "name": "Afyonkarahisar", "lat": 38.7638, "lon": 30.5405 },
    { "name": "Ağrı", "lat": 39.7191, "lon": 43.0519 },
    { "name": "Aksaray", "lat": 38.3687, "lon": 34.037 },
    { "name": "Amasya", "lat": 40.6539, "lon": 35.8337 },
    { "name": "Ankara", "lat": 39.9334, "lon": 32.8597 },
    { "name": "Antalya", "lat": 36.8969, "lon": 30.7133 },
    { "name": "Ardahan", "lat": 41.1105, "lon": 42.7022 },
    { "name": "Artvin", "lat": 41.1828, "lon": 41.8183 },
    { "name": "Aydın", "lat": 37.8495, "lon": 27.8456 },
    { "name": "Balıkesir", "lat": 39.6484, "lon": 27.8826 },
    { "name": "Bartın", "lat": 41.6353, "lon": 32.3389 },
    { "name": "Batman", "lat": 37.8834, "lon": 41.1351 },
    { "name": "Bayburt", "lat": 40.2552, "lon": 40.2249 },
    { "name": "Bilecik", "lat": 40.1501, "lon": 29.9793 },
    { "name": "Bingöl", "lat": 38.8848, "lon": 40.4939 },
    { "name": "Bitlis", "lat": 38.3938, "lon": 42.1232 },
    { "name": "Bolu", "lat": 40.735, "lon": 31.6067 },
    { "name": "Burdur", "lat": 37.7269, "lon": 30.2889 },
    { "name": "Bursa", "lat": 40.1826, "lon": 29.0668 },
    { "name": "Çanakkale", "lat": 40.1553, "lon": 26.4142 },
    { "name": "Çankırı", "lat": 40.599, "lon": 33.6156 },
    { "name": "Çorum", "lat": 40.5489, "lon": 34.9531 },
    { "name": "Denizli", "lat": 37.7765, "lon": 29.0864 },
    { "name": "Diyarbakır", "lat": 37.9144, "lon": 40.2306 },
    { "name": "Düzce", "lat": 40.8438, "lon": 31.1565 },
    { "name": "Edirne", "lat": 41.6772, "lon": 26.5557 },
    { "name": "Elazığ", "lat": 38.6756, "lon": 39.2205 },
    { "name": "Erzincan", "lat": 39.75, "lon": 39.5 },
    { "name": "Erzurum", "lat": 39.904, "lon": 41.2679 },
    { "name": "Eskişehir", "lat": 39.7667, "lon": 30.5256 },
    { "name": "Gaziantep", "lat": 37.0662, "lon": 37.3833 },
    { "name": "Giresun", "lat": 40.9128, "lon": 38.3895 },
    { "name": "Gümüşhane", "lat": 40.4602, "lon": 39.4817 },
    { "name": "Hakkari", "lat": 37.5744, "lon": 43.7408 },
    { "name": "Hatay", "lat": 36.4018, "lon": 36.3498 },
    { "name": "Iğdır", "lat": 39.8885, "lon": 44.0048 },
    { "name": "Isparta", "lat": 37.7648, "lon": 30.5566 },
    { "name": "İstanbul", "lat": 41.0082, "lon": 28.9784 },
    { "name": "İzmir", "lat": 38.4237, "lon": 27.1428 },
    { "name": "Kahramanmaraş", "lat": 37.573, "lon": 36.937 },
    { "name": "Karabük", "lat": 41.2, "lon": 32.6256 },
    { "name": "Karaman", "lat": 37.1819, "lon": 33.215 },
    { "name": "Kars", "lat": 40.6028, "lon": 43.097 },
    { "name": "Kastamonu", "lat": 41.3887, "lon": 33.7827 },
    { "name": "Kayseri", "lat": 38.7312, "lon": 35.4787 },
    { "name": "Kırıkkale", "lat": 39.8468, "lon": 33.5153 },
    { "name": "Kırklareli", "lat": 41.7351, "lon": 27.2247 },
    { "name": "Kırşehir", "lat": 39.1461, "lon": 34.1606 },
    { "name": "Kilis", "lat": 36.7184, "lon": 37.1212 },
    { "name": "Kocaeli", "lat": 40.8533, "lon": 29.8815 },
    { "name": "Konya", "lat": 37.8716, "lon": 32.4846 },
    { "name": "Kütahya", "lat": 39.4167, "lon": 29.9833 },
    { "name": "Malatya", "lat": 38.3552, "lon": 38.3095 },
    { "name": "Manisa", "lat": 38.6191, "lon": 27.4289 },
    { "name": "Mardin", "lat": 37.3212, "lon": 40.7245 },
    { "name": "Mersin", "lat": 36.8121, "lon": 34.6415 },
    { "name": "Muğla", "lat": 37.2153, "lon": 28.3636 },
    { "name": "Muş", "lat": 38.9462, "lon": 41.7539 },
    { "name": "Nevşehir", "lat": 38.6244, "lon": 34.7239 },
    { "name": "Niğde", "lat": 37.9707, "lon": 34.6796 },
    { "name": "Ordu", "lat": 40.9847, "lon": 37.8786 },
    { "name": "Osmaniye", "lat": 37.0748, "lon": 36.246 },
    { "name": "Rize", "lat": 41.0201, "lon": 40.5234 },
    { "name": "Sakarya", "lat": 40.7731, "lon": 30.3947 },
    { "name": "Samsun", "lat": 41.2867, "lon": 36.33 },
    { "name": "Siirt", "lat": 37.9274, "lon": 41.9409 },
    { "name": "Sinop", "lat": 42.0264, "lon": 35.1551 },
    { "name": "Sivas", "lat": 39.7477, "lon": 37.0179 },
    { "name": "Şanlıurfa", "lat": 37.1674, "lon": 38.7955 },
    { "name": "Şırnak", "lat": 37.4187, "lon": 42.4918 },
    { "name": "Tekirdağ", "lat": 40.978, "lon": 27.5113 },
    { "name": "Tokat", "lat": 40.3139, "lon": 36.5544 },
    { "name": "Trabzon", "lat": 41.0015, "lon": 39.7178 },
    { "name": "Tunceli", "lat": 39.1077, "lon": 39.5402 },
    { "name": "Uşak", "lat": 38.6735, "lon": 29.405 },
    { "name": "Van", "lat": 38.501, "lon": 43.4 },
    { "name": "Yalova", "lat": 40.6529, "lon": 29.2769 },
    { "name": "Yozgat", "lat": 39.82, "lon": 34.8047 },
    { "name": "Zonguldak", "lat": 41.4564, "lon": 31.7987 }
  ]
  